{
  "cities": [
    {
      "id": 2,
      "name": "Suceava",
      "latitude": 47.6455,
      "longitude": 26.2486
    },
    {
      "id": 1,
      "name": "Vatra Dornei",
      "latitude": 47.3475,
      "longitude": 25.3594
    }
  ],
  "business": [
    {
      "id": 1,
      "city_id": 2,
      "name": "Hotel Mandachi",
      "latitude": 47.6217,
      "longitude": 26.2400,
      "logo": "../css/images/hotel_mandachi.jpg",
      "google_page_url": "https://hotelmandachi.com/en/",
      "rating": 4.3,
      "address": "Bulevardul Sofia Vicoveanca 107, Suceava, Suceava, România",
      "email": "office@hotelmandachi.ro",
      "phone": "+40 330 111 999 / +40 753 169 300"
    },
    {
      "id": 2,
      "city_id": 2,
      "name": "Hotel Continental",
      "latitude": 47.6461,
      "longitude": 26.2554,
      "logo": "../css/images/continental_logo.jpg",
      "google_page_url": "https://mycontinental-suceava.continentalhotels.ro/",
      "rating": 4.1,
      "address": "Strada Mihai Viteazul nr. 4, cod 720057, Suceava, România",
      "email": "suceava@continentalhotels.ro",
      "phone": "+40 372 304 904"
    },
    {
      "id": 3,
      "city_id": 2,
      "name": "Hotel Balada",
      "latitude": 47.6403,
      "longitude": 26.2632,
      "logo": "../css/images/hotel_balada.jpg",
      "google_page_url": "https://hotelbalada.ro/",
      "rating": 4.6,
      "address": "Strada Mitropoliei, Numărul 5 720035, Suceava, România",
      "email": "contact@hotelbalada.ro",
      "phone": "+40 330 100 026"
    },
    {
      "id": 4,
      "city_id": 2,
      "name": "Restaurant Ceaunul Bunicii",
      "latitude": 47.6428,
      "longitude": 26.2453,
      "logo": "../css/images/ceaunul_bunicii.png",
      "google_page_url": "https://www.ceaunulbunicii.ro/",
      "rating": 4.4,
      "address": "Strada Universității 42B, Suceava",
      "email": "contact@ceaunulbunicii.ro",
      "phone": "+40 749 430 418 / +40 771 066 540"
    },
    {
      "id": 5,
      "city_id": 2,
      "name": "Restaurant Casa Bucovineana",
      "latitude": 47.6506,
      "longitude": 26.2548,
      "logo": "https://dummyimage.com/300",
      "google_page_url": "https://casabucovineana.ro/",
      "rating": 4.5,
      "address": "Strada Petru Rareș 57B, Suceava 727525",
      "email": "casabucovineana@gmail.com",
      "phone": "0746 908 070 / 0744 211 833"
    },
    {
      "id": 6,
      "city_id": 2,
      "name": "Taco Loco",
      "latitude": 47.6423,
      "longitude": 26.2573,
      "logo": "https://dummyimage.com/300",
      "google_page_url": "https://www.tacolocosv.ro/",
      "rating": 4.1,
      "address": "Str. Vasile Bumbac 5A, Suceava",
      "email": "office@tacolocosv.ro",
      "phone": "0230 220 032 / 0748 220 032"
    },
    {
      "id": 7,
      "city_id": 2,
      "name": "Restaurant Union",
      "latitude": 47.6444,
      "longitude": 26.2611,
      "logo": "https://dummyimage.com/300",
      "google_page_url": "https://www.restaurant-union.ro/",
      "rating": 4.2,
      "address": "Str. Ana Ipatescu Nr. 7, 720026 Suceava",
      "email": "-",
      "phone": "0737 001 913"
    }
  ]
}
